<?xml version="1.0" encoding="UTF-8"?><kml xmlns="http://www.opengis.net/kml/2.2"><Document><Placemark><ExtendedData></ExtendedData><Point><coordinates>11.766357,54.489187</coordinates></Point></Placemark><Placemark><name>Ball</name><ExtendedData><Data name="name"><value>Ball</value></Data><Data name="_umap_options"><value>[object Object]</value></Data></ExtendedData><Point><coordinates>2.263184,52.802761</coordinates></Point></Placemark><Placemark><name>Circle</name><ExtendedData><Data name="name"><value>Circle</value></Data><Data name="_umap_options"><value>[object Object]</value></Data></ExtendedData><Point><coordinates>2.230225,53.41608</coordinates></Point></Placemark><Placemark><name>Default</name><ExtendedData><Data name="name"><value>Default</value></Data></ExtendedData><Point><coordinates>2.208252,53.618579</coordinates></Point></Placemark><Placemark><name>Default + symbol</name><ExtendedData><Data name="name"><value>Default + symbol</value></Data><Data name="_umap_options"><value>[object Object]</value></Data></ExtendedData><Point><coordinates>2.27417,52.335339</coordinates></Point></Placemark><Placemark><name>Drop</name><ExtendedData><Data name="name"><value>Drop</value></Data><Data name="_umap_options"><value>[object Object]</value></Data></ExtendedData><Point><coordinates>2.241211,53.034607</coordinates></Point></Placemark><Placemark><name> Carshalton</name><ExtendedData><Data name="name"><value> Carshalton</value></Data><Data name="ref     "><value> CSH</value></Data></ExtendedData><Point><coordinates>-0.166395,51.368592</coordinates></Point></Placemark><Placemark><name> Carshalton</name><ExtendedData><Data name="name"><value> Carshalton</value></Data><Data name="ref     "><value> CSH</value></Data></ExtendedData><Point><coordinates>-0.166395,51.368592</coordinates></Point></Placemark><Placemark><ExtendedData></ExtendedData><Point><coordinates>1.977539,55.485079</coordinates></Point></Placemark><Placemark><name>Southwark cathedral</name><description>This is description</description><ExtendedData><Data name="name"><value>Southwark cathedral</value></Data><Data name="description"><value>This is description</value></Data><Data name="denom"><value>Anglican</value></Data><Data name="bells"><value>13</value></Data></ExtendedData><Point><coordinates>-0.065918,51.508742</coordinates></Point></Placemark><Placemark><name>test on click</name><ExtendedData><Data name="name"><value>test on click</value></Data></ExtendedData><Point><coordinates>-0.126343,50.814612</coordinates></Point></Placemark></Document></kml>